school_name,school_category,school_type,school_nature,school_area,school_address,school_postal_code,lat,long
Admiralty Primary School,primary_school,Government School,Co-Ed School,Woodlands,11 Woodlands Circle,738907,1.44263479033113,103.800040119743
Ahmad Ibrahim Primary School,primary_school,Government School,Co-Ed School,Yishun,10 Yishun Street 11,768643,1.4331527154352,103.832942401086
Ai Tong School,primary_school,Government-Aided School,Co-Ed School,Bishan,100 Bright Hill Drive,579646,1.36058343389044,103.833020333986
Alexandra Primary School,primary_school,Government School,Co-Ed School,Bukit Merah,2A Prince Charles Crescent,159016,1.29133439161336,103.824424680531
Anchor Green Primary School,primary_school,Government School,Co-Ed School,Sengkang,31 Anchorvale Drive,544969,1.39037014886962,103.887165375937
Anderson Primary School,primary_school,Government School,Co-Ed School,Ang Mo Kio,19 Ang Mo Kio Ave 9,569785,1.38426429436739,103.841392081119
Ang Mo Kio Primary School,primary_school,Government School,Co-Ed School,Ang Mo Kio,20 Ang Mo Kio Avenue 3,569920,1.3693217658461,103.839630858752
Anglo-Chinese School (Junior),primary_school,Government-Aided School,Boys' School,Central,16 Winstedt Road,227988,1.30935122599558,103.840955091346
Anglo-Chinese School (Primary),primary_school,Government-Aided School,Boys' School,Novena,50 Barker Road,309918,1.31837054550897,103.835609732082
Angsana Primary School,primary_school,Government School,Co-Ed School,Tampines,3 Tampines Street 22,529366,1.34855974654082,103.951808106156
Beacon Primary School,primary_school,Government School,Co-Ed School,Bukit Panjang,36 Bukit Panjang Ring Road,679944,1.38394934487102,103.77363194111
Bedok Green Primary School,primary_school,Government School,Co-Ed School,Bedok,1 Bedok South Ave 2,469317,1.32344593287994,103.937878976352
Bendemeer Primary School,primary_school,Government School,Co-Ed School,Kallang,91 Bendemeer Road,339948,1.32181250780476,103.865404167629
Blangah Rise Primary School,primary_school,Government School,Co-Ed School,Bukit Merah,91 Telok Blangah Heights,109100,1.27612047869293,103.808628536055
Boon Lay Garden Primary School,primary_school,Government School,Co-Ed School,Jurong West,20 Boon Lay Drive,649930,1.34317853793319,103.713280889452
Bukit Panjang Primary School,primary_school,Government School,Co-Ed School,Bukit Panjang,109 Cashew Road,679676,1.37362179302439,103.769374904025
Bukit Timah Primary School,primary_school,Government School,Co-Ed School,Bukit Timah,111 Lorong Kismis,598112,1.33751860013149,103.767243310781
Bukit View Primary School,primary_school,Government School,Co-Ed School,Bukit Batok,18 Bukit Batok Street 21,659634,1.34586054842037,103.753665986188
CHIJ (Katong) Primary,primary_school,Government-Aided School,Girls' School,Bedok,17 Martia Road,424821,1.30648535277089,103.911105620496
CHIJ (Kellock),primary_school,Government-Aided School,Girls' School,Bukit Merah,1 Bukit Teresa Road,099757,1.27502272296403,103.828157564896
CHIJ Our Lady Queen of Peace,primary_school,Government-Aided School,Girls' School,Bukit Panjang,4 Chestnut Drive,679287,1.36660366856101,103.767412204602
CHIJ Our Lady of Good Counsel,primary_school,Government-Aided School,Girls' School,Serangoon,2C Burghley Drive,558979,1.3574295229699,103.864009397373
CHIJ Our Lady of The Nativity,primary_school,Government-Aided School,Girls' School,Hougang,1257 Upper Serangoon Road,534793,1.37330297194879,103.897575728031
CHIJ Primary (Toa Payoh),primary_school,Government-Aided School,Girls' School,Toa Payoh,628 Lorong 1 Toa Payoh,319765,1.33275264711591,103.841847263786
CHIJ St. Nicholas Girls&#8217; School (Primary Section),primary_school,Government-Aided School,Girls' School,Ang Mo Kio,501 Ang Mo Kio Street 13,569405,1.37347687878919,103.834253269436
Canberra Primary School,primary_school,Government School,Co-Ed School,Sembawang,21 Admiralty Drive,757714,1.45130467584564,103.815839476605
Canossa Catholic Primary School,primary_school,Government-Aided School,Co-Ed School,Geylang,1 Sallim Road,387621,1.32685879628179,103.881050911498
Cantonment Primary School,primary_school,Government School,Co-Ed School,Bukit Merah,1 Cantonment Close,088256,1.27547252623205,103.839962631748
Casuarina Primary School,primary_school,Government School,Co-Ed School,Pasir Ris,30 Pasir Ris St 41,518935,1.37246063955374,103.957020286387
Catholic High School (Primary Section),primary_school,Government-Aided School,Boys' School,Bishan,9 Bishan Street 22,579767,1.35472307471664,103.844874676599
Cedar Primary School,primary_school,Government School,Co-Ed School,Toa Payoh,15 Cedar Avenue,349700,1.33558842561171,103.875620790518
Changkat Primary School,primary_school,Government School,Co-Ed School,Tampines,11 Simei St 3,529896,1.34023163951634,103.952080114035
Chongfu School,primary_school,Government-Aided School,Co-Ed School,Yishun,170 Yishun Avenue 6,768959,1.43839562897008,103.839309173817
Chongzheng Primary School,primary_school,Government School,Co-Ed School,Tampines,1 Tampines Street 21,529392,1.35070739237745,103.951399541868
Chua Chu Kang Primary School,primary_school,Government School,Co-Ed School,Choa Chu Kang,20 Choa Chu Kang Avenue 2,689905,1.3777589009337,103.741832917421
Clementi Primary School,primary_school,Government School,Co-Ed School,Clementi,8 Clementi Ave 3,129903,1.31506321827877,103.763144493687
Compassvale Primary School,primary_school,Government School,Co-Ed School,Sengkang,21 Compassvale St,545091,1.39444529636568,103.897812229905
Concord Primary School,primary_school,Government School,Co-Ed School,Choa Chu Kang,3 Choa Chu Kang Ave 4,689814,1.38000806197243,103.736225440727
Corporation Primary School,primary_school,Government School,Co-Ed School,Jurong West,31 Jurong West Street 24,648347,1.35099779872542,103.707593724614
Damai Primary School,primary_school,Government School,Co-Ed School,Bedok,52 Bedok Reservoir Crescent,479226,1.33546106800408,103.921270169613
Dazhong Primary School,primary_school,Government School,Co-Ed School,Bukit Batok,35 Bukit Batok Street 31,659441,1.35917974472771,103.74847210784
De La Salle School,primary_school,Government-Aided School,Co-Ed School,Choa Chu Kang,11 Choa Chu Kang St 52,689285,1.39470782963993,103.743201812831
East Spring Primary School,primary_school,Government School,Co-Ed School,Tampines,31 Tampines St 33,529258,1.35268400746359,103.961676849165
Edgefield Primary School,primary_school,Government School,Co-Ed School,Punggol,41 Edgefield Plains,828869,1.40009139510997,103.907847599114
Elias Park Primary School,primary_school,Government School,Co-Ed School,Pasir Ris,11 Pasir Ris Street 52,518866,1.37451269459895,103.945128117683
Endeavour Primary School,primary_school,Government School,Co-Ed School,Sembawang,10 Admiralty Link,757521,1.45403837499303,103.817436231731
Eunos Primary School,primary_school,Government School,Co-Ed School,Geylang,95 Jalan Eunos,419529,1.32447629876371,103.904541254016
Evergreen Primary School,primary_school,Government School,Co-Ed School,Woodlands,31 Woodlands Circle,738908,1.44415064298951,103.794581221647
Fairfield Methodist School (Primary),primary_school,Government-Aided School,Co-Ed School,Queenstown,100 Dover Road,139648,1.30054082453427,103.785438270044
Farrer Park Primary School,primary_school,Government School,Co-Ed School,Kallang,2 Farrer Park Road,217567,1.31236855965766,103.850766169884
Fengshan Primary School,primary_school,Government School,Co-Ed School,Bedok,307 Bedok North Road,469680,1.32980598760786,103.931710293058
Fern Green Primary School,primary_school,Government School,Co-Ed School,Sengkang,70 Fernvale Link,797538,1.39726966050481,103.880330305684
Fernvale Primary School,primary_school,Government School,Co-Ed School,Sengkang,1 Fernvale Lane,797701,1.39030227963798,103.874445458032
First Toa Payoh Primary School,primary_school,Government School,Co-Ed School,Toa Payoh,7 Lorong 8 Toa Payoh,319252,1.34032299527313,103.85552990727
Frontier Primary School,primary_school,Government School,Co-Ed School,Jurong West,20 Jurong West Street 61,648200,1.33641298743236,103.69970173931
Fuchun Primary School,primary_school,Government School,Co-Ed School,Woodlands,23 Woodlands Avenue 1,739063,1.43047990810127,103.778192944298
Fuhua Primary School,primary_school,Government School,Co-Ed School,Jurong East,65 Jurong East Street 13,609647,1.33650394789627,103.736103745748
Gan Eng Seng Primary School,primary_school,Government School,Co-Ed School,Bukit Merah,100 Redhill Close,158901,1.28559516494963,103.815547410064
Geylang Methodist School (Primary),primary_school,Government-Aided School,Co-Ed School,Geylang,4 Geylang East Central,389706,1.31759126757286,103.883845744916
Gongshang Primary School,primary_school,Government School,Co-Ed School,Tampines,1 Tampines Street 42,529176,1.35723721033471,103.949116145623
Greendale Primary School,primary_school,Government School,Co-Ed School,Punggol,50 Edgedale Plains,828848,1.39648761034483,103.912341048919
Greenridge Primary School,primary_school,Government School,Co-Ed School,Bukit Panjang,11 Jelapang Road,677744,1.38588921936923,103.767794469258
Greenwood Primary School,primary_school,Government School,Co-Ed School,Woodlands,11 Woodlands Dr 62,737942,1.43989958331785,103.804725587384
Guangyang Primary School,primary_school,Government School,Co-Ed School,Bishan,6 Bishan Street 12,579806,1.34569011530241,103.849453239895
Haig Girls&#8217; School,primary_school,Government School,Girls' School,Geylang,51 Koon Seng Road,427072,1.31194344271385,103.902902557195
Henry Park Primary School,primary_school,Government School,Co-Ed School,Bukit Timah,1 Holland Grove Road,278790,1.31667646178349,103.784296227747
Holy Innocents&#8217; Primary School,primary_school,Government-Aided School,Co-Ed School,Hougang,5 Lorong Low Koon,536451,1.3669383087735,103.894114899795
Hong Wen School,primary_school,Government-Aided School,Co-Ed School,Kallang,30 Towner Road,327829,1.32175999964555,103.857628468881
Horizon Primary School,primary_school,Government School,Co-Ed School,Punggol,61 Edgedale Plains,828819,1.39955003449202,103.913404855665
Hougang Primary School,primary_school,Government School,Co-Ed School,Hougang,1 Hougang St 93,534238,1.37738249360778,103.880807295096
Huamin Primary School,primary_school,Government School,Co-Ed School,Yishun,21 Yishun Avenue 11,768857,1.42731880981381,103.844863443
Innova Primary School,primary_school,Government School,Co-Ed School,Woodlands,80 Woodlands Drive 17,737888,1.42896700684853,103.790607539185
Jiemin Primary School,primary_school,Government School,Co-Ed School,Yishun,2  Yishun Street 71,768515,1.42768620385279,103.830427933344
Jing Shan Primary School,primary_school,Government School,Co-Ed School,Ang Mo Kio,5 Ang Mo Kio St 52,569228,1.372232909835,103.852132214306
Junyuan Primary School,primary_school,Government School,Co-Ed School,Tampines,2 Tampines Street 91,528906,1.34787051230886,103.939220537934
Jurong Primary School,primary_school,Government School,Co-Ed School,Jurong East,320 Jurong East Street 32,609476,1.3486002031607,103.733156560251
Jurong West Primary School,primary_school,Government School,Co-Ed School,Jurong West,30 Jurong West St 61,648368,1.33917519796107,103.698803732244
Juying Primary School,primary_school,Government School,Co-Ed School,Jurong West,31 Jurong West Street 91,649037,1.33902264667596,103.687769624799
Keming Primary School,primary_school,Government School,Co-Ed School,Bukit Batok,90 Bukit Batok East Avenue 6,659762,1.34552849960877,103.756449399351
Kheng Cheng School,primary_school,Government-Aided School,Co-Ed School,Toa Payoh,15 Lorong 3 Toa Payoh,319580,1.33733819356392,103.847148501824
Kong Hwa School,primary_school,Government-Aided School,Co-Ed School,Geylang,350 Guillemard Road,399772,1.31099674009195,103.888352029067
Kranji Primary School,primary_school,Government School,Co-Ed School,Choa Chu Kang,11 Choa Chu Kang Street 54,689189,1.39356050497107,103.747362720939
Kuo Chuan Presbyterian Primary School,primary_school,Government-Aided School,Co-Ed School,Bishan,8 Bishan Street 13,579793,1.34939813669538,103.855018233311
Lakeside Primary School,primary_school,Government School,Co-Ed School,Jurong West,161 Corporation Walk,618310,1.33820397676916,103.718089546936
Lianhua Primary School,primary_school,Government School,Co-Ed School,Bukit Batok,2 Bukit Batok Street 52,659243,1.35424191127296,103.754165828711
Maha Bodhi School,primary_school,Government-Aided School,Co-Ed School,Geylang,10 Ubi Avenue 1,408931,1.32847086658388,103.901298737314
Maris Stella High School (Primary Section),primary_school,Government-Aided School,Boys' School,Toa Payoh,25 Mount Vernon Road,368051,,
Marsiling Primary School,primary_school,Government School,Co-Ed School,Woodlands,31 Woodlands Centre Road,738927,1.4338390403706,103.773643013846
Marymount Convent School,primary_school,Government-Aided School,Girls' School,Toa Payoh,20 Marymount Road,297754,1.34036676987376,103.840021064426
Mayflower Primary School,primary_school,Government School,Co-Ed School,Ang Mo Kio,200 Ang Mo Kio Avenue 5,569878,1.37614621670478,103.835805246743
Mee Toh School,primary_school,Government-Aided School,Co-Ed School,Punggol,21 Edgedale Plains,828867,1.39461845385922,103.908589494228
Meridian Primary School,primary_school,Government School,Co-Ed School,Pasir Ris,20 Pasir Ris St 71,518798,1.37552831658488,103.934889078246
Methodist Girls&#8217; School (Primary),primary_school,Government-Aided School,Girls' School,Bukit Timah,11 Blackmore Drive,599986,1.33294800935715,103.783393009829
Montfort Junior School,primary_school,Government-Aided School,Boys' School,Hougang,52 Hougang Avenue 8,538786,1.3738244407598,103.889307782925
Nan Chiau Primary School,primary_school,Government-Aided School,Co-Ed School,Sengkang,50 Anchorvale Link,545080,1.39221149906595,103.891180928186
Nan Hua Primary School,primary_school,Government-Aided School,Co-Ed School,Clementi,30 Jalan Lempeng,128806,1.30611628454706,103.765118624077
Nanyang Primary School,primary_school,Government-Aided School,Co-Ed School,Bukit Timah,52 King's Road,268097,1.32084749904534,103.807750155296
Naval Base Primary School,primary_school,Government School,Co-Ed School,Yishun,7 Yishun Ave 4,769028,1.41630663159389,103.838794077233
New Town Primary School,primary_school,Government School,Co-Ed School,Queenstown,300 Tanglin Halt Road,148812,1.29964181064172,103.800102318609
Ngee Ann Primary School,primary_school,Government-Aided School,Co-Ed School,Marine Parade,344 Marine Terrace,449149,1.305525059105,103.917463017497
North Spring Primary School,primary_school,Government School,Co-Ed School,Sengkang,1 Rivervale Street,545088,1.38706146494863,103.903202683028
North View Primary School,primary_school,Government School,Co-Ed School,Yishun,210 Yishun Avenue 6,768960,1.42752327193729,103.848190787869
North Vista Primary School,primary_school,Government School,Co-Ed School,Sengkang,20 Compassvale Link,544974,1.38282243016301,103.895961877928
Northland Primary School,primary_school,Government School,Co-Ed School,Yishun,15 Yishun Avenue 4,769026,1.42096989918956,103.840928424929
Northoaks Primary School,primary_school,Government School,Co-Ed School,Sembawang,61 Sembawang Drive,757622,1.45660782030105,103.814196981329
Northshore Primary School,primary_school,Government School,Co-Ed School,Punggol,30 Northshore Drive,828671,,
Oasis Primary School,primary_school,Government School,Co-Ed School,Punggol,71 Edgefield Plains,828716,1.40462413200795,103.911120600638
Opera Estate Primary School,primary_school,Government School,Co-Ed School,Bedok,48 Fidelio Street,458436,1.3193191443626,103.923788259248
Palm View Primary School,primary_school,Government School,Co-Ed School,Sengkang,150 Compassvale Bow,544822,1.38376923022127,103.891354675017
Park View Primary School,primary_school,Government School,Co-Ed School,Pasir Ris,60 Pasir Ris Drive 1,519524,1.37738069854251,103.939541695654
Pasir Ris Primary School,primary_school,Government School,Co-Ed School,Pasir Ris,5 Pasir Ris Street 21,518968,1.37241870245533,103.962807212116
Paya Lebar Methodist Girls&#8217; School (Primary),primary_school,Government-Aided School,Girls' School,Hougang,298 Lorong Ah Soo,536741,1.34947276268398,103.884971343143
Pei Chun Public School,primary_school,Government-Aided School,Co-Ed School,Toa Payoh,16 Lorong 7 Toa Payoh,319320,1.33274088113984,103.858628716978
Pei Hwa Presbyterian Primary School,primary_school,Government-Aided School,Co-Ed School,Bukit Timah,7 Pei Wah Avenue,597610,1.33805507824253,103.776108247761
Pei Tong Primary School,primary_school,Government School,Co-Ed School,Clementi,15 Clementi Avenue 5,129857,1.31619774918991,103.767599739431
Peiying Primary School,primary_school,Government School,Co-Ed School,Yishun,651 Yishun Ring Road,768687,1.41723339695906,103.830417090698
Pioneer Primary School,primary_school,Government School,Co-Ed School,Jurong West,23 Jurong West Street 81,649076,1.34883617453429,103.695003812477
Poi Ching School,primary_school,Government-Aided School,Co-Ed School,Tampines,21 Tampines Street 71,529067,1.35765122315691,103.935246477199
Princess Elizabeth Primary School,primary_school,Government School,Co-Ed School,Bukit Batok,30 Bukit Batok West Avenue 3,659163,1.34920351265302,103.74101964471
Punggol Cove Primary School,primary_school,Government School,Co-Ed School,Punggol,52 Sumang Walk,828674,1.41159891873965,103.898804620697
Punggol Green Primary School,primary_school,Government School,Co-Ed School,Punggol,98 Punggol Walk,828772,1.40187220643297,103.898801330302
Punggol Primary School,primary_school,Government School,Co-Ed School,Hougang,61 Hougang Avenue 8,538787,1.37779451245844,103.894506933396
Punggol View Primary School,primary_school,Government School,Co-Ed School,Punggol,9 Punggol Place,828845,1.40514582647964,103.905156371376
Qifa Primary School,primary_school,Government School,Co-Ed School,Clementi,50 West Coast Avenue,128104,1.31325147892085,103.756743208641
Qihua Primary School,primary_school,Government School,Co-Ed School,Woodlands,5 Woodlands Street 81,738525,1.44203596612333,103.788339756898
Queenstown Primary School,primary_school,Government School,Co-Ed School,Queenstown,310 Margaret Dr,149303,1.29559365009016,103.807548617332
Radin Mas Primary School,primary_school,Government School,Co-Ed School,Bukit Merah,1 Bukit Purmei Avenue,099840,1.27495823622639,103.824188270373
Raffles Girls&#8217; Primary School,primary_school,Government School,Girls' School,Bukit Timah,21 Hillcrest Road,289072,1.32940426000123,103.806442915912
Red Swastika School,primary_school,Government-Aided School,Co-Ed School,Bedok,350 Bedok North Avenue 3,469719,1.33324297847733,103.934332314404
River Valley Primary School,primary_school,Government School,Co-Ed School,Central,2 River Valley Green,237993,1.29422328461692,103.835815165829
Riverside Primary School,primary_school,Government School,Co-Ed School,Woodlands,110 Woodlands Crescent,737803,1.44704734253722,103.801831963297
Rivervale Primary School,primary_school,Government School,Co-Ed School,Sengkang,80 Rivervale Drive,545092,1.39340997767763,103.904559511997
Rosyth School,primary_school,Government School,Co-Ed School,Serangoon,21 Serangoon North Avenue 4,555855,1.37289067499066,103.875001549174
Rulang Primary School,primary_school,Government School,Co-Ed School,Jurong West,6 Jurong West Street 52,649295,1.34673868889098,103.718457955487
Sembawang Primary School,primary_school,Government School,Co-Ed School,Sembawang,10 Sembawang Drive,757715,1.44507371552624,103.821042374036
Seng Kang Primary School,primary_school,Government School,Co-Ed School,Sengkang,21 Compassvale Walk,545166,1.38949740395092,103.899767112047
Sengkang Green Primary School,primary_school,Government School,Co-Ed School,Sengkang,15 Fernvale Road,797636,1.39284606680479,103.875217666486
Shuqun Primary School,primary_school,Government School,Co-Ed School,Jurong West,8 Jurong West Street 51,649332,1.34765311431636,103.721523713379
Si Ling Primary School,primary_school,Government School,Co-Ed School,Woodlands,61 Woodlands Avenue 1,739067,1.43240935732527,103.786035065192
Singapore Chinese Girls&#8217; School (Primary),primary_school,Government-Aided School,Girls' School,Novena,190 Dunearn Road,309437,1.3203941615946,103.82994776728
South View Primary School,primary_school,Government School,Co-Ed School,Choa Chu Kang,6 Choa Chu Kang Central,689762,1.38166664389752,103.746275846011
Springdale Primary School,primary_school,Government School,Co-Ed School,Sengkang,71 Anchorvale Link,544799,1.39467010299297,103.889926221247
St. Andrew&#8217;s Junior School,primary_school,Government-Aided School,Boys' School,Toa Payoh,2 Francis Thomas Drive,359337,1.33140255308872,103.865117134385
St. Anthony&#8217;s Canossian Primary School,primary_school,Government-Aided School,Girls' School,Bedok,1602 Bedok North Ave 4,469701,1.33472537301892,103.941234868202
St. Anthony&#8217;s Primary School,primary_school,Government-Aided School,Co-Ed School,Bukit Batok,30 Bukit Batok St 32,659401,1.36411948475835,103.749251919049
St. Gabriel&#8217;s Primary School,primary_school,Government-Aided School,Boys' School,Serangoon,220 Lorong Chuan,556742,1.34947192653863,103.862561037707
St. Hilda&#8217;s Primary School,primary_school,Government-Aided School,Co-Ed School,Tampines,2 Tampines Ave 3,529706,1.34934994368498,103.937920511812
St. Joseph&#8217;s Institution Junior,primary_school,Government-Aided School,Boys' School,Novena,3 Essex Road,309331,1.31772860986917,103.845611935235
St. Margaret&#8217;s Primary School,primary_school,Government-Aided School,Girls' School,Central,99 Wilkie Road,228091,1.30378845667471,103.846251114072
St. Stephen&#8217;s School,primary_school,Government-Aided School,Boys' School,Bedok,20 Siglap View,455789,1.31878997295137,103.917258129598
Stamford Primary School,primary_school,Government School,Co-Ed School,Central,1 Victoria Lane,198423,1.3034563846745,103.857453500579
Tampines North Primary School,primary_school,Government School,Co-Ed School,Tampines,30 Tampines Avenue 9,529565,1.36047641484685,103.948725782833
Tampines Primary School,primary_school,Government School,Co-Ed School,Tampines,250 Tampines Street 12,529426,1.34977870805929,103.944004684986
Tanjong Katong Primary School,primary_school,Government School,Co-Ed School,Marine Parade,10 Seraya Road,437259,,
Tao Nan School,primary_school,Government-Aided School,Co-Ed School,Marine Parade,49 Marine Crescent,449761,1.30528528687323,103.911553152326
Teck Ghee Primary School,primary_school,Government School,Co-Ed School,Ang Mo Kio,1 Ang Mo Kio Street 32,569299,1.36558782075971,103.850957126982
Teck Whye Primary School,primary_school,Government School,Co-Ed School,Choa Chu Kang,11 Teck Whye Walk,688261,1.38364996834459,103.753291857016
Telok Kurau Primary School,primary_school,Government School,Co-Ed School,Bedok,50 Bedok Reservoir Rd,479239,1.3310458544135,103.910934011337
Temasek Primary School,primary_school,Government School,Co-Ed School,Bedok,501 Bedok South Ave 3,469300,1.31770677551335,103.945590669163
Townsville Primary School,primary_school,Government School,Co-Ed School,Ang Mo Kio,3 Ang Mo Kio Ave 10,569730,1.36003263719251,103.853826048328
Unity Primary School,primary_school,Government School,Co-Ed School,Choa Chu Kang,21 Choa Chu Kang Crescent,688268,1.40285481877249,103.746822625758
Valour Primary School,primary_school,Government School,Co-Ed School,Punggol,49 Punggol Central,828728,,
Waterway Primary School,primary_school,Government School,Co-Ed School,Punggol,70 Punggol Drive,828802,1.3988280062658,103.918621581556
Wellington Primary School,primary_school,Government School,Co-Ed School,Sembawang,10 Wellington Circle,757702,1.45191585783116,103.82230605577
West Grove Primary School,primary_school,Government School,Co-Ed School,Jurong West,1 Jurong West St 72,649223,1.34487905600144,103.699286360581
West Spring Primary School,primary_school,Government School,Co-Ed School,Bukit Panjang,60 Bukit Panjang Ring Road,679946,1.38944145898946,103.766195711835
West View Primary School,primary_school,Government School,Co-Ed School,Bukit Panjang,31 Senja Road,677742,1.38367582003361,103.760240434318
Westwood Primary School,primary_school,Government School,Co-Ed School,Jurong West,1 Jurong West Street 73,649188,1.34718456606377,103.70053420978
White Sands Primary School,primary_school,Government School,Co-Ed School,Pasir Ris,2 Pasir Ris St 11,519075,1.36555714668556,103.960918869319
Woodgrove Primary School,primary_school,Government School,Co-Ed School,Woodlands,2 Woodlands Drive 14,738079,1.43310340168969,103.790604437613
Woodlands Primary School,primary_school,Government School,Co-Ed School,Woodlands,10 Woodlands Drive 50,738853,1.43655108594233,103.791570546509
Woodlands Ring Primary School,primary_school,Government School,Co-Ed School,Woodlands,11 Woodlands Ring Road,738240,1.4349522931586,103.797435733144
Xinghua Primary School,primary_school,Government School,Co-Ed School,Hougang,45 Hougang Avenue 1,538882,1.35790893608186,103.890465047334
Xingnan Primary School,primary_school,Government School,Co-Ed School,Jurong West,5 Jurong West Street 91,649036,1.34254744877696,103.687950252103
Xinmin Primary School,primary_school,Government School,Co-Ed School,Hougang,9 Hougang Avenue 8,538784,1.37139548941933,103.883080767491
Xishan Primary School,primary_school,Government School,Co-Ed School,Yishun,8 Yishun Street 21,768611,1.43347186925066,103.837755319448
Yangzheng Primary School,primary_school,Government School,Co-Ed School,Serangoon,15 Serangoon Avenue 3,556108,1.3489737533151,103.868349549195
Yew Tee Primary School,primary_school,Government School,Co-Ed School,Choa Chu Kang,10 Choa Chu Kang St 64,689100,1.39676600905038,103.750985967346
Yio Chu Kang Primary School,primary_school,Government School,Co-Ed School,Hougang,1 Hougang Street 51,538720,1.37793264345278,103.885643682171
Yishun Primary School,primary_school,Government School,Co-Ed School,Yishun,500 Yishun Ring Road,768679,1.43338602948303,103.834087115915
Yu Neng Primary School,primary_school,Government School,Co-Ed School,Bedok,56 Bedok North St 3,469623,1.33388900977814,103.932150334643
Yuhua Primary School,primary_school,Government School,Co-Ed School,Jurong East,158 Jurong East Street 24,609558,1.34280230475035,103.741105772644
Yumin Primary School,primary_school,Government School,Co-Ed School,Tampines,3 Tampines Street 21,529393,1.35129177656982,103.950461927088
Zhangde Primary School,primary_school,Government School,Co-Ed School,Bukit Merah,51 Jalan Membina,169485,1.28421153335382,103.825951875662
Zhenghua Primary School,primary_school,Government School,Co-Ed School,Bukit Panjang,9 Fajar Road,679002,1.37954887512233,103.769313521752
Zhonghua Primary School,primary_school,Government School,Co-Ed School,Serangoon,12 Serangoon Avenue 4,556095,1.3602032970505,103.869762438084
